District,latitude,longitude
Al Izdihar,24.7803,46.7189
Al-Masif,24.7656,46.6803
Al-Mugharrazat,24.7617,46.7214
Al-Nakheel,24.7489,46.6527
Al-Malga,24.8143,46.6107
Hittin,24.762,46.6038
Al-Wadi,24.7905,46.6919
Al-Ghadir,24.7734,46.6552
Al-Nafil,24.783,46.6738
Al-Hamra,24.7783,46.7614
Qortubah,24.8166,46.732
Al-Ra'id,24.7092,46.6387
King Fahd District,24.7338,46.6744
al-nada,24.8057,46.6844
al taawon,24.7666,46.7051
alflah,24.796,46.7101